{"businesses": [{"id": "AMPeKmZJepoDwK1uCV7feQ", "alias": "devout-coffee-fremont", "name": "Devout Coffee", "image_url": "https://s3-media1.fl.yelpcdn.com/bphoto/7uso6-6qwLK4LICEQCfKIA/o.jpg", "is_closed": false, "url": "https://www.yelp.com/biz/devout-coffee-fremont?adjust_creative=L3zlaznQ8cNdnPEv2WtYaA&utm_campaign=yelp_api_v3&utm_medium=api_v3_business_search&utm_source=L3zlaznQ8cNdnPEv2WtYaA", "review_count": 646, "categories": [{"alias": "coffeeroasteries", "title": "Coffee Roasteries"}], "rating": 4.5, "coordinates": {"latitude": 37.577333, "longitude": -121.980799}, "transactions": [], "price": "$", "location": {"address1": "37323 Niles Blvd", "address2": "", "address3": "", "city": "Fremont", "zip_code": "94536", "country": "US", "state": "CA", "display_address": ["37323 Niles Blvd", "Fremont, CA 94536"]}, "phone": "", "display_phone": "", "distance": 4705.221517648656}, {"id": "Df639PtiliFHRHwyQ7hr1w", "alias": "slap-face-coffee-and-tea-fremont", "name": "Slap Face Coffee & Tea", "image_url": "https://s3-media1.fl.yelpcdn.com/bphoto/vARklIRFUoiClxxCBLpypg/o.jpg", "is_closed": false, "url": "https://www.yelp.com/biz/slap-face-coffee-and-tea-fremont?adjust_creative=L3zlaznQ8cNdnPEv2WtYaA&utm_campaign=yelp_api_v3&utm_medium=api_v3_business_search&utm_source=L3zlaznQ8cNdnPEv2WtYaA", "review_count": 626, "categories": [{"alias": "coffee", "title": "Coffee & Tea"}], "rating": 4.0, "coordinates": {"latitude": 37.5583563271568, "longitude": -122.00688701123}, "transactions": [], "price": "$", "location": {"address1": "37324 Fremont Blvd", "address2": "", "address3": "", "city": "Fremont", "zip_code": "94536", "country": "US", "state": "CA", "display_address": ["37324 Fremont Blvd", "Fremont, CA 94536"]}, "phone": "+15105651130", "display_phone": "(510) 565-1130", "distance": 3123.3323050563295}, {"id": "zDLUxTA5-ndCf0Lm3fiGfA", "alias": "philz-coffee-fremont-7", "name": "Philz Coffee", "image_url": "https://s3-media2.fl.yelpcdn.com/bphoto/GPS4h3cPf-y9BTvBvvU0Nw/o.jpg", "is_closed": false, "url": "https://www.yelp.com/biz/philz-coffee-fremont-7?adjust_creative=L3zlaznQ8cNdnPEv2WtYaA&utm_campaign=yelp_api_v3&utm_medium=api_v3_business_search&utm_source=L3zlaznQ8cNdnPEv2WtYaA", "review_count": 264, "categories": [{"alias": "coffee", "title": "Coffee & Tea"}], "rating": 4.5, "coordinates": {"latitude": 37.55354, "longitude": -121.98028}, "transactions": [], "price": "$", "location": {"address1": "39000 Paseo Padre Pkwy", "address2": null, "address3": "", "city": "Fremont", "zip_code": "94538", "country": "US", "state": "CA", "display_address": ["39000 Paseo Padre Pkwy", "Fremont, CA 94538"]}, "phone": "+15104569279", "display_phone": "(510) 456-9279", "distance": 2106.401700301841}, {"id": "076pOv_py98Ni6txTKE5kQ", "alias": "mission-coffee-fremont", "name": "Mission Coffee", "image_url": "https://s3-media3.fl.yelpcdn.com/bphoto/uKlbrg1DYMo4Jdu_F4-dCA/o.jpg", "is_closed": false, "url": "https://www.yelp.com/biz/mission-coffee-fremont?adjust_creative=L3zlaznQ8cNdnPEv2WtYaA&utm_campaign=yelp_api_v3&utm_medium=api_v3_business_search&utm_source=L3zlaznQ8cNdnPEv2WtYaA", "review_count": 376, "categories": [{"alias": "coffeeroasteries", "title": "Coffee Roasteries"}, {"alias": "cafes", "title": "Cafes"}], "rating": 4.0, "coordinates": {"latitude": 37.5335, "longitude": -121.92091}, "transactions": [], "price": "$", "location": {"address1": "151 Washington Blvd", "address2": "", "address3": "", "city": "Fremont", "zip_code": "94539", "country": "US", "state": "CA", "display_address": ["151 Washington Blvd", "Fremont, CA 94539"]}, "phone": "+15106236920", "display_phone": "(510) 623-6920", "distance": 5805.739838451721}, {"id": "mMprpHe8tp3QUEFq0EkQKw", "alias": "dash-coffee-and-bakery-fremont", "name": "Dash Coffee and Bakery", "image_url": "https://s3-media2.fl.yelpcdn.com/bphoto/X75S7xpkWkKDzIbHc5pEeA/o.jpg", "is_closed": false, "url": "https://www.yelp.com/biz/dash-coffee-and-bakery-fremont?adjust_creative=L3zlaznQ8cNdnPEv2WtYaA&utm_campaign=yelp_api_v3&utm_medium=api_v3_business_search&utm_source=L3zlaznQ8cNdnPEv2WtYaA", "review_count": 20, "categories": [{"alias": "cafes", "title": "Cafes"}, {"alias": "coffee", "title": "Coffee & Tea"}, {"alias": "bakeries", "title": "Bakeries"}], "rating": 4.5, "coordinates": {"latitude": 37.5107331875705, "longitude": -121.940612714252}, "transactions": [], "location": {"address1": "44047 Osgood Rd", "address2": "Ste 210", "address3": null, "city": "Fremont", "zip_code": "94539", "country": "US", "state": "CA", "display_address": ["44047 Osgood Rd", "Ste 210", "Fremont, CA 94539"]}, "phone": "+15105790729", "display_phone": "(510) 579-0729", "distance": 4895.254845811549}, {"id": "xbiMSds4CnxWA1_Nj3Rc5A", "alias": "sujus-coffee-and-tea-fremont", "name": "Suju's Coffee & Tea", "image_url": "https://s3-media2.fl.yelpcdn.com/bphoto/sq3GZ4R7xnJiLiYy5Le-BA/o.jpg", "is_closed": false, "url": "https://www.yelp.com/biz/sujus-coffee-and-tea-fremont?adjust_creative=L3zlaznQ8cNdnPEv2WtYaA&utm_campaign=yelp_api_v3&utm_medium=api_v3_business_search&utm_source=L3zlaznQ8cNdnPEv2WtYaA", "review_count": 692, "categories": [{"alias": "coffee", "title": "Coffee & Tea"}], "rating": 3.5, "coordinates": {"latitude": 37.5625427260814, "longitude": -122.009055380136}, "transactions": [], "price": "$", "location": {"address1": "3602 Thornton Ave", "address2": "", "address3": "", "city": "Fremont", "zip_code": "94536", "country": "US", "state": "CA", "display_address": ["3602 Thornton Ave", "Fremont, CA 94536"]}, "phone": "+15107428880", "display_phone": "(510) 742-8880", "distance": 3616.3714818282333}, {"id": "kwFVtutqTGMDHwl4eAfowg", "alias": "bean-scene-cafe-fremont-2", "name": "Bean Scene Cafe", "image_url": "https://s3-media4.fl.yelpcdn.com/bphoto/43jEhFdUzCTMMUxY0jMM9w/o.jpg", "is_closed": false, "url": "https://www.yelp.com/biz/bean-scene-cafe-fremont-2?adjust_creative=L3zlaznQ8cNdnPEv2WtYaA&utm_campaign=yelp_api_v3&utm_medium=api_v3_business_search&utm_source=L3zlaznQ8cNdnPEv2WtYaA", "review_count": 235, "categories": [{"alias": "coffee", "title": "Coffee & Tea"}, {"alias": "breakfast_brunch", "title": "Breakfast & Brunch"}, {"alias": "sandwiches", "title": "Sandwiches"}], "rating": 4.0, "coordinates": {"latitude": 37.532729, "longitude": -121.95934}, "transactions": ["pickup"], "price": "$", "location": {"address1": "4000 Bay St", "address2": "Ste A", "address3": "", "city": "Fremont", "zip_code": "94538", "country": "US", "state": "CA", "display_address": ["4000 Bay St", "Ste A", "Fremont, CA 94538"]}, "phone": "+15107709947", "display_phone": "(510) 770-9947", "distance": 2428.5918846631407}, {"id": "Jj4VEbPAEKCbQ96Kq-gbOQ", "alias": "oudimentary-fremont", "name": "Oudimentary", "image_url": "https://s3-media4.fl.yelpcdn.com/bphoto/BxPK5F-FGIbpUOVt9p70uQ/o.jpg", "is_closed": false, "url": "https://www.yelp.com/biz/oudimentary-fremont?adjust_creative=L3zlaznQ8cNdnPEv2WtYaA&utm_campaign=yelp_api_v3&utm_medium=api_v3_business_search&utm_source=L3zlaznQ8cNdnPEv2WtYaA", "review_count": 13, "categories": [{"alias": "coffee", "title": "Coffee & Tea"}], "rating": 5.0, "coordinates": {"latitude": 37.519964, "longitude": -121.945146}, "transactions": [], "price": "$$", "location": {"address1": "43170 Osgood Rd", "address2": null, "address3": "", "city": "Fremont", "zip_code": "94539", "country": "US", "state": "CA", "display_address": ["43170 Osgood Rd", "Fremont, CA 94539"]}, "phone": "+15104560522", "display_phone": "(510) 456-0522", "distance": 4040.219685492461}, {"id": "aYO6YUtQ0PTI1EsJBdaKYA", "alias": "teco-tea-and-coffee-bar-fremont", "name": "TECO Tea & Coffee Bar", "image_url": "https://s3-media4.fl.yelpcdn.com/bphoto/rg5KthEFEjKhKzhyPPS8Lw/o.jpg", "is_closed": false, "url": "https://www.yelp.com/biz/teco-tea-and-coffee-bar-fremont?adjust_creative=L3zlaznQ8cNdnPEv2WtYaA&utm_campaign=yelp_api_v3&utm_medium=api_v3_business_search&utm_source=L3zlaznQ8cNdnPEv2WtYaA", "review_count": 285, "categories": [{"alias": "coffee", "title": "Coffee & Tea"}, {"alias": "desserts", "title": "Desserts"}, {"alias": "bubbletea", "title": "Bubble Tea"}], "rating": 4.0, "coordinates": {"latitude": 37.5536740743289, "longitude": -121.981200212226}, "transactions": [], "price": "$$", "location": {"address1": "39030 Paseo Padre Pkwy", "address2": null, "address3": "", "city": "Fremont", "zip_code": "94538", "country": "US", "state": "CA", "display_address": ["39030 Paseo Padre Pkwy", "Fremont, CA 94538"]}, "phone": "+15105092008", "display_phone": "(510) 509-2008", "distance": 2207.9496305625003}, {"id": "rZJHyarOtLqtl0fhjI2qGA", "alias": "mirchi-meat-and-deli-fremont", "name": "Mirchi Meat & Deli", "image_url": "https://s3-media1.fl.yelpcdn.com/bphoto/xyQ7i5Z4VUb17iBFmwuyvw/o.jpg", "is_closed": false, "url": "https://www.yelp.com/biz/mirchi-meat-and-deli-fremont?adjust_creative=L3zlaznQ8cNdnPEv2WtYaA&utm_campaign=yelp_api_v3&utm_medium=api_v3_business_search&utm_source=L3zlaznQ8cNdnPEv2WtYaA", "review_count": 22, "categories": [{"alias": "delis", "title": "Delis"}, {"alias": "meats", "title": "Meat Shops"}, {"alias": "coffee", "title": "Coffee & Tea"}], "rating": 4.5, "coordinates": {"latitude": 37.53456, "longitude": -121.96052}, "transactions": [], "location": {"address1": "40900 Fremont Blvd", "address2": "Ste B", "address3": "", "city": "Fremont", "zip_code": "94538", "country": "US", "state": "CA", "display_address": ["40900 Fremont Blvd", "Ste B", "Fremont, CA 94538"]}, "phone": "+15106249136", "display_phone": "(510) 624-9136", "distance": 2287.3612950782153}, {"id": "i78b8s1gWldlwZoK-kusXg", "alias": "allegro-coffee-fremont", "name": "Allegro Coffee", "image_url": "https://s3-media1.fl.yelpcdn.com/bphoto/4hGukBATc8YkOmVs3eL28Q/o.jpg", "is_closed": false, "url": "https://www.yelp.com/biz/allegro-coffee-fremont?adjust_creative=L3zlaznQ8cNdnPEv2WtYaA&utm_campaign=yelp_api_v3&utm_medium=api_v3_business_search&utm_source=L3zlaznQ8cNdnPEv2WtYaA", "review_count": 4, "categories": [{"alias": "coffeeroasteries", "title": "Coffee Roasteries"}], "rating": 4.0, "coordinates": {"latitude": 37.5550701883763, "longitude": -121.98483209935}, "transactions": [], "price": "$", "location": {"address1": "3111 Mowry Ave", "address2": "", "address3": null, "city": "Fremont", "zip_code": "94538", "country": "US", "state": "CA", "display_address": ["3111 Mowry Ave", "Fremont, CA 94538"]}, "phone": "+15104015880", "display_phone": "(510) 401-5880", "distance": 2207.0415261895296}, {"id": "6yV_yKXWTEgmBbg27T9-Xg", "alias": "bun-app\u00e9tit-fremont", "name": "Bun App\u00e9tit", "image_url": "https://s3-media3.fl.yelpcdn.com/bphoto/qexTth_SJVIEzFIVqe-5Fw/o.jpg", "is_closed": false, "url": "https://www.yelp.com/biz/bun-app%C3%A9tit-fremont?adjust_creative=L3zlaznQ8cNdnPEv2WtYaA&utm_campaign=yelp_api_v3&utm_medium=api_v3_business_search&utm_source=L3zlaznQ8cNdnPEv2WtYaA", "review_count": 121, "categories": [{"alias": "donuts", "title": "Donuts"}, {"alias": "breakfast_brunch", "title": "Breakfast & Brunch"}, {"alias": "coffee", "title": "Coffee & Tea"}], "rating": 4.5, "coordinates": {"latitude": 37.559903868343, "longitude": -122.009873324027}, "transactions": [], "location": {"address1": "37120 Fremont Blvd", "address2": "Ste A", "address3": null, "city": "Fremont", "zip_code": "94536", "country": "US", "state": "CA", "display_address": ["37120 Fremont Blvd", "Ste A", "Fremont, CA 94536"]}, "phone": "+15105651292", "display_phone": "(510) 565-1292", "distance": 3416.818035315806}, {"id": "1d9vzy2OdPtm8KmOqgx5fA", "alias": "peets-coffee-fremont-2", "name": "Peet's Coffee", "image_url": "https://s3-media2.fl.yelpcdn.com/bphoto/2hozms3QZf0xWfs9l5jUEw/o.jpg", "is_closed": false, "url": "https://www.yelp.com/biz/peets-coffee-fremont-2?adjust_creative=L3zlaznQ8cNdnPEv2WtYaA&utm_campaign=yelp_api_v3&utm_medium=api_v3_business_search&utm_source=L3zlaznQ8cNdnPEv2WtYaA", "review_count": 324, "categories": [{"alias": "coffee", "title": "Coffee & Tea"}], "rating": 4.0, "coordinates": {"latitude": 37.554299, "longitude": -121.981847}, "transactions": [], "price": "$", "location": {"address1": "2780 Mowry Ave", "address2": null, "address3": "", "city": "Fremont", "zip_code": "94538", "country": "US", "state": "CA", "display_address": ["2780 Mowry Ave", "Fremont, CA 94538"]}, "phone": "+15108579000", "display_phone": "(510) 857-9000", "distance": 2157.9152714122024}, {"id": "R95XwaUizpS-ZbmBvatN7g", "alias": "sujus-coffee-and-tea-fremont-3", "name": "Suju's Coffee & Tea", "image_url": "https://s3-media1.fl.yelpcdn.com/bphoto/ZQN38WNMZiKSBt8eYF4Xqg/o.jpg", "is_closed": false, "url": "https://www.yelp.com/biz/sujus-coffee-and-tea-fremont-3?adjust_creative=L3zlaznQ8cNdnPEv2WtYaA&utm_campaign=yelp_api_v3&utm_medium=api_v3_business_search&utm_source=L3zlaznQ8cNdnPEv2WtYaA", "review_count": 396, "categories": [{"alias": "coffee", "title": "Coffee & Tea"}], "rating": 3.5, "coordinates": {"latitude": 37.5299125945739, "longitude": -121.982265449522}, "transactions": [], "price": "$", "location": {"address1": "4949 Stevenson Blvd", "address2": "", "address3": "Sundale Shopping Center", "city": "Fremont", "zip_code": "94538", "country": "US", "state": "CA", "display_address": ["4949 Stevenson Blvd", "Sundale Shopping Center", "Fremont, CA 94538"]}, "phone": "+15102521727", "display_phone": "(510) 252-1727", "distance": 712.9432468204548}, {"id": "B7-mlrlDDEDXvOXwhsDqYA", "alias": "la-farfalla-bakery-fremont", "name": "La Farfalla Bakery", "image_url": "https://s3-media2.fl.yelpcdn.com/bphoto/ynS9VzdZeF2AB-9efdmssg/o.jpg", "is_closed": false, "url": "https://www.yelp.com/biz/la-farfalla-bakery-fremont?adjust_creative=L3zlaznQ8cNdnPEv2WtYaA&utm_campaign=yelp_api_v3&utm_medium=api_v3_business_search&utm_source=L3zlaznQ8cNdnPEv2WtYaA", "review_count": 126, "categories": [{"alias": "bakeries", "title": "Bakeries"}, {"alias": "desserts", "title": "Desserts"}, {"alias": "coffee", "title": "Coffee & Tea"}], "rating": 4.0, "coordinates": {"latitude": 37.5566932750951, "longitude": -121.952448293212}, "transactions": [], "price": "$$", "location": {"address1": "39947 Mission Blvd", "address2": "", "address3": "", "city": "Fremont", "zip_code": "94539", "country": "US", "state": "CA", "display_address": ["39947 Mission Blvd", "Fremont, CA 94539"]}, "phone": "+15106510888", "display_phone": "(510) 651-0888", "distance": 3845.3532690077336}, {"id": "zMzYc_2hscf0p6DFJxOAdw", "alias": "gonutz-fremont-3", "name": "Gonutz", "image_url": "https://s3-media2.fl.yelpcdn.com/bphoto/zEFpj4UgOmCzQo2UUmGorA/o.jpg", "is_closed": false, "url": "https://www.yelp.com/biz/gonutz-fremont-3?adjust_creative=L3zlaznQ8cNdnPEv2WtYaA&utm_campaign=yelp_api_v3&utm_medium=api_v3_business_search&utm_source=L3zlaznQ8cNdnPEv2WtYaA", "review_count": 458, "categories": [{"alias": "donuts", "title": "Donuts"}, {"alias": "coffee", "title": "Coffee & Tea"}], "rating": 4.0, "coordinates": {"latitude": 37.53143, "longitude": -121.95929}, "transactions": ["delivery", "pickup"], "price": "$$", "location": {"address1": "41093 Fremont Blvd", "address2": "Ste 102", "address3": "", "city": "Fremont", "zip_code": "94538", "country": "US", "state": "CA", "display_address": ["41093 Fremont Blvd", "Ste 102", "Fremont, CA 94538"]}, "phone": "+18444466889", "display_phone": "(844) 446-6889", "distance": 2462.8761412310428}, {"id": "TdEGp1rhyAuycSsVKj0O6Q", "alias": "inklings-coffee-and-tea-pleasanton-2", "name": "Inklings Coffee & Tea", "image_url": "https://s3-media3.fl.yelpcdn.com/bphoto/u8QVe4AbUUZKAii0c1-AGQ/o.jpg", "is_closed": false, "url": "https://www.yelp.com/biz/inklings-coffee-and-tea-pleasanton-2?adjust_creative=L3zlaznQ8cNdnPEv2WtYaA&utm_campaign=yelp_api_v3&utm_medium=api_v3_business_search&utm_source=L3zlaznQ8cNdnPEv2WtYaA", "review_count": 363, "categories": [{"alias": "venues", "title": "Venues & Event Spaces"}, {"alias": "coffee", "title": "Coffee & Tea"}], "rating": 4.0, "coordinates": {"latitude": 37.6608, "longitude": -121.87537}, "transactions": [], "price": "$$", "location": {"address1": "530 Main St", "address2": null, "address3": "", "city": "Pleasanton", "zip_code": "94566", "country": "US", "state": "CA", "display_address": ["530 Main St", "Pleasanton, CA 94566"]}, "phone": "+19253991496", "display_phone": "(925) 399-1496", "distance": 17060.923678824656}, {"id": "rwjQaoXIpF3HLKGetx5TUw", "alias": "cafe-4-castro-valley-2", "name": "Cafe 4", "image_url": "https://s3-media2.fl.yelpcdn.com/bphoto/6wmvrh5aR_3_dt9AzBu88Q/o.jpg", "is_closed": false, "url": "https://www.yelp.com/biz/cafe-4-castro-valley-2?adjust_creative=L3zlaznQ8cNdnPEv2WtYaA&utm_campaign=yelp_api_v3&utm_medium=api_v3_business_search&utm_source=L3zlaznQ8cNdnPEv2WtYaA", "review_count": 504, "categories": [{"alias": "coffee", "title": "Coffee & Tea"}], "rating": 4.5, "coordinates": {"latitude": 37.692222, "longitude": -122.092735}, "transactions": [], "price": "$", "location": {"address1": "20600 John Dr", "address2": "", "address3": "", "city": "Castro Valley", "zip_code": "94546", "country": "US", "state": "CA", "display_address": ["20600 John Dr", "Castro Valley, CA 94546"]}, "phone": "+15103703610", "display_phone": "(510) 370-3610", "distance": 19919.847253361804}, {"id": "i4mA1FgqRVyxDyzfKKFckw", "alias": "airborne-roasting-union-city", "name": "Airborne Roasting", "image_url": "https://s3-media2.fl.yelpcdn.com/bphoto/NA2sP52-5ZozzPxyrQpFBg/o.jpg", "is_closed": false, "url": "https://www.yelp.com/biz/airborne-roasting-union-city?adjust_creative=L3zlaznQ8cNdnPEv2WtYaA&utm_campaign=yelp_api_v3&utm_medium=api_v3_business_search&utm_source=L3zlaznQ8cNdnPEv2WtYaA", "review_count": 29, "categories": [{"alias": "coffeeroasteries", "title": "Coffee Roasteries"}], "rating": 5.0, "coordinates": {"latitude": 37.5926098, "longitude": -122.0359318}, "transactions": [], "location": {"address1": "33476 Alvarado-Niles Rd", "address2": "Ste 6", "address3": null, "city": "Union City", "zip_code": "94587", "country": "US", "state": "CA", "display_address": ["33476 Alvarado-Niles Rd", "Ste 6", "Union City, CA 94587"]}, "phone": "+15109528800", "display_phone": "(510) 952-8800", "distance": 7712.10950775506}, {"id": "CVM5Jk5ilbOadCnpqioAuw", "alias": "1-oz-coffee-santa-clara-2", "name": "1 Oz Coffee", "image_url": "https://s3-media1.fl.yelpcdn.com/bphoto/NF8CSsYe3D-mFUjbLwmHFQ/o.jpg", "is_closed": false, "url": "https://www.yelp.com/biz/1-oz-coffee-santa-clara-2?adjust_creative=L3zlaznQ8cNdnPEv2WtYaA&utm_campaign=yelp_api_v3&utm_medium=api_v3_business_search&utm_source=L3zlaznQ8cNdnPEv2WtYaA", "review_count": 154, "categories": [{"alias": "coffee", "title": "Coffee & Tea"}], "rating": 4.5, "coordinates": {"latitude": 37.40457, "longitude": -121.9822}, "transactions": [], "price": "$$", "location": {"address1": "3051 Tasman Dr", "address2": null, "address3": "", "city": "Santa Clara", "zip_code": "95054", "country": "US", "state": "CA", "display_address": ["3051 Tasman Dr", "Santa Clara, CA 95054"]}, "phone": "+14088330980", "display_phone": "(408) 833-0980", "distance": 14539.350137134537}], "total": 1400, "region": {"center": {"longitude": -121.9866943359375, "latitude": 37.53527676006081}}}