{"businesses": [{"id": "X9_bLC143PtN1XT0K7P8iQ", "alias": "voyager-craft-coffee-santa-clara", "name": "Voyager Craft Coffee", "image_url": "https://s3-media2.fl.yelpcdn.com/bphoto/7-Zqcj5mOSKUynbceAdPHA/o.jpg", "is_closed": false, "url": "https://www.yelp.com/biz/voyager-craft-coffee-santa-clara?adjust_creative=L3zlaznQ8cNdnPEv2WtYaA&utm_campaign=yelp_api_v3&utm_medium=api_v3_business_search&utm_source=L3zlaznQ8cNdnPEv2WtYaA", "review_count": 1015, "categories": [{"alias": "coffee", "title": "Coffee & Tea"}, {"alias": "breakfast_brunch", "title": "Breakfast & Brunch"}], "rating": 4.5, "coordinates": {"latitude": 37.3236199, "longitude": -121.9725281}, "transactions": ["pickup"], "price": "$$", "location": {"address1": "3985 Stevens Creek Blvd", "address2": null, "address3": "", "city": "Santa Clara", "zip_code": "95051", "country": "US", "state": "CA", "display_address": ["3985 Stevens Creek Blvd", "Santa Clara, CA 95051"]}, "phone": "+14082393484", "display_phone": "(408) 239-3484", "distance": 4146.61200463264}, {"id": "glXPy-G3930VYk1AkCyZvg", "alias": "big-mug-coffee-roaster-santa-clara", "name": "Big Mug Coffee Roaster", "image_url": "https://s3-media3.fl.yelpcdn.com/bphoto/PhJcx-GntiW4_4Pads5TkQ/o.jpg", "is_closed": false, "url": "https://www.yelp.com/biz/big-mug-coffee-roaster-santa-clara?adjust_creative=L3zlaznQ8cNdnPEv2WtYaA&utm_campaign=yelp_api_v3&utm_medium=api_v3_business_search&utm_source=L3zlaznQ8cNdnPEv2WtYaA", "review_count": 1048, "categories": [{"alias": "coffee", "title": "Coffee & Tea"}, {"alias": "coffeeroasteries", "title": "Coffee Roasteries"}, {"alias": "cafes", "title": "Cafes"}], "rating": 4.0, "coordinates": {"latitude": 37.35177, "longitude": -121.98119}, "transactions": [], "price": "$", "location": {"address1": "3014 El Camino Real", "address2": null, "address3": "", "city": "Santa Clara", "zip_code": "95051", "country": "US", "state": "CA", "display_address": ["3014 El Camino Real", "Santa Clara, CA 95051"]}, "phone": "+14088167932", "display_phone": "(408) 816-7932", "distance": 1652.9588622781348}, {"id": "CVM5Jk5ilbOadCnpqioAuw", "alias": "1-oz-coffee-santa-clara-2", "name": "1 Oz Coffee", "image_url": "https://s3-media1.fl.yelpcdn.com/bphoto/NF8CSsYe3D-mFUjbLwmHFQ/o.jpg", "is_closed": false, "url": "https://www.yelp.com/biz/1-oz-coffee-santa-clara-2?adjust_creative=L3zlaznQ8cNdnPEv2WtYaA&utm_campaign=yelp_api_v3&utm_medium=api_v3_business_search&utm_source=L3zlaznQ8cNdnPEv2WtYaA", "review_count": 154, "categories": [{"alias": "coffee", "title": "Coffee & Tea"}], "rating": 4.5, "coordinates": {"latitude": 37.40457, "longitude": -121.9822}, "transactions": [], "price": "$$", "location": {"address1": "3051 Tasman Dr", "address2": null, "address3": "", "city": "Santa Clara", "zip_code": "95054", "country": "US", "state": "CA", "display_address": ["3051 Tasman Dr", "Santa Clara, CA 95054"]}, "phone": "+14088330980", "display_phone": "(408) 833-0980", "distance": 5083.898258198773}, {"id": "27MKze8laNnGbmfV2HrZFQ", "alias": "chromatic-coffee-santa-clara", "name": "Chromatic Coffee", "image_url": "https://s3-media4.fl.yelpcdn.com/bphoto/ANyEb6B1Wz1A22AZGVlyYA/o.jpg", "is_closed": false, "url": "https://www.yelp.com/biz/chromatic-coffee-santa-clara?adjust_creative=L3zlaznQ8cNdnPEv2WtYaA&utm_campaign=yelp_api_v3&utm_medium=api_v3_business_search&utm_source=L3zlaznQ8cNdnPEv2WtYaA", "review_count": 1043, "categories": [{"alias": "coffee", "title": "Coffee & Tea"}, {"alias": "cafes", "title": "Cafes"}], "rating": 4.0, "coordinates": {"latitude": 37.323959, "longitude": -121.994339}, "transactions": [], "price": "$", "location": {"address1": "5237 Stevens Creek Blvd", "address2": null, "address3": "", "city": "Santa Clara", "zip_code": "95051", "country": "US", "state": "CA", "display_address": ["5237 Stevens Creek Blvd", "Santa Clara, CA 95051"]}, "phone": "+14082484500", "display_phone": "(408) 248-4500", "distance": 4763.863307340254}, {"id": "CG5GGYpdz3Cti7NhUHW5XQ", "alias": "barefoot-coffee-roasters-santa-clara-4", "name": "Barefoot Coffee Roasters", "image_url": "https://s3-media1.fl.yelpcdn.com/bphoto/JzVGhXonj43Jr_dyf7TmNg/o.jpg", "is_closed": false, "url": "https://www.yelp.com/biz/barefoot-coffee-roasters-santa-clara-4?adjust_creative=L3zlaznQ8cNdnPEv2WtYaA&utm_campaign=yelp_api_v3&utm_medium=api_v3_business_search&utm_source=L3zlaznQ8cNdnPEv2WtYaA", "review_count": 11, "categories": [{"alias": "coffee", "title": "Coffee & Tea"}], "rating": 4.5, "coordinates": {"latitude": 37.3657528, "longitude": -121.9410997}, "transactions": [], "price": "$$", "location": {"address1": "2475 De La Cruz Blvd", "address2": "", "address3": "", "city": "Santa Clara", "zip_code": "95050", "country": "US", "state": "CA", "display_address": ["2475 De La Cruz Blvd", "Santa Clara, CA 95050"]}, "phone": "+14082937200", "display_phone": "(408) 293-7200", "distance": 2311.6343629554576}, {"id": "2N0hEELnkApF7bDlwtPxeA", "alias": "cosmic-coffee-company-santa-clara-2", "name": "Cosmic Coffee Company", "image_url": "https://s3-media1.fl.yelpcdn.com/bphoto/EQQiBqWEAMQfqaUiVxCnEQ/o.jpg", "is_closed": false, "url": "https://www.yelp.com/biz/cosmic-coffee-company-santa-clara-2?adjust_creative=L3zlaznQ8cNdnPEv2WtYaA&utm_campaign=yelp_api_v3&utm_medium=api_v3_business_search&utm_source=L3zlaznQ8cNdnPEv2WtYaA", "review_count": 25, "categories": [{"alias": "coffee", "title": "Coffee & Tea"}], "rating": 5.0, "coordinates": {"latitude": 37.3588486, "longitude": -121.9482574}, "transactions": [], "price": "$$", "location": {"address1": "1920 Lafayette St", "address2": "Unit G", "address3": "", "city": "Santa Clara", "zip_code": "95050", "country": "US", "state": "CA", "display_address": ["1920 Lafayette St", "Unit G", "Santa Clara, CA 95050"]}, "phone": "+14088299663", "display_phone": "(408) 829-9663", "distance": 1640.6115999483347}, {"id": "5ZACsVbila9HQ5AVbjiJIg", "alias": "tom-n-toms-coffee-santa-clara-3", "name": "Tom N Toms Coffee", "image_url": "https://s3-media4.fl.yelpcdn.com/bphoto/BKHJ1uYh0azYRc3pcSBFzQ/o.jpg", "is_closed": false, "url": "https://www.yelp.com/biz/tom-n-toms-coffee-santa-clara-3?adjust_creative=L3zlaznQ8cNdnPEv2WtYaA&utm_campaign=yelp_api_v3&utm_medium=api_v3_business_search&utm_source=L3zlaznQ8cNdnPEv2WtYaA", "review_count": 297, "categories": [{"alias": "coffee", "title": "Coffee & Tea"}], "rating": 4.0, "coordinates": {"latitude": 37.3519529507674, "longitude": -121.981817409396}, "transactions": [], "price": "$", "location": {"address1": "3050 El Camino Real", "address2": "", "address3": "", "city": "Santa Clara", "zip_code": "95051", "country": "US", "state": "CA", "display_address": ["3050 El Camino Real", "Santa Clara, CA 95051"]}, "phone": "+14085648698", "display_phone": "(408) 564-8698", "distance": 1664.7159969575841}, {"id": "UkDM4qbk2_O86hHM5PJ6kA", "alias": "coffee-factory-santa-clara", "name": "Coffee Factory", "image_url": "https://s3-media3.fl.yelpcdn.com/bphoto/kfiUVX8bZEAs9nRATu34PQ/o.jpg", "is_closed": false, "url": "https://www.yelp.com/biz/coffee-factory-santa-clara?adjust_creative=L3zlaznQ8cNdnPEv2WtYaA&utm_campaign=yelp_api_v3&utm_medium=api_v3_business_search&utm_source=L3zlaznQ8cNdnPEv2WtYaA", "review_count": 279, "categories": [{"alias": "coffee", "title": "Coffee & Tea"}], "rating": 4.0, "coordinates": {"latitude": 37.323814, "longitude": -121.96849}, "transactions": [], "price": "$", "location": {"address1": "3787 Stevens Creek Blvd", "address2": "", "address3": "", "city": "Santa Clara", "zip_code": "95051", "country": "US", "state": "CA", "display_address": ["3787 Stevens Creek Blvd", "Santa Clara, CA 95051"]}, "phone": "+14082967600", "display_phone": "(408) 296-7600", "distance": 4065.012886540631}, {"id": "mUHfUiZa9gBrBxpibviV0A", "alias": "city-lights-espresso-santa-clara", "name": "City Lights Espresso", "image_url": "https://s3-media2.fl.yelpcdn.com/bphoto/LuMrXKimcshbMA2ghC-1uw/o.jpg", "is_closed": false, "url": "https://www.yelp.com/biz/city-lights-espresso-santa-clara?adjust_creative=L3zlaznQ8cNdnPEv2WtYaA&utm_campaign=yelp_api_v3&utm_medium=api_v3_business_search&utm_source=L3zlaznQ8cNdnPEv2WtYaA", "review_count": 190, "categories": [{"alias": "coffee", "title": "Coffee & Tea"}, {"alias": "cafes", "title": "Cafes"}, {"alias": "gluten_free", "title": "Gluten-Free"}], "rating": 4.0, "coordinates": {"latitude": 37.3486158924301, "longitude": -121.946632874705}, "transactions": [], "price": "$", "location": {"address1": "1171 Homestead Rd", "address2": "Ste 190", "address3": "", "city": "Santa Clara", "zip_code": "95050", "country": "US", "state": "CA", "display_address": ["1171 Homestead Rd", "Ste 190", "Santa Clara, CA 95050"]}, "phone": "+14082960415", "display_phone": "(408) 296-0415", "distance": 2199.761453687062}, {"id": "Yf3aII4VFKuJ3wSg0HxGUA", "alias": "rumman-cafe-santa-clara", "name": "Rumman Cafe", "image_url": "https://s3-media2.fl.yelpcdn.com/bphoto/eNs_oRbKRC_bSUZyuEEZ5w/o.jpg", "is_closed": false, "url": "https://www.yelp.com/biz/rumman-cafe-santa-clara?adjust_creative=L3zlaznQ8cNdnPEv2WtYaA&utm_campaign=yelp_api_v3&utm_medium=api_v3_business_search&utm_source=L3zlaznQ8cNdnPEv2WtYaA", "review_count": 10, "categories": [{"alias": "coffee", "title": "Coffee & Tea"}, {"alias": "sandwiches", "title": "Sandwiches"}, {"alias": "juicebars", "title": "Juice Bars & Smoothies"}], "rating": 5.0, "coordinates": {"latitude": 37.37708, "longitude": -121.95948}, "transactions": ["delivery", "pickup"], "price": "$", "location": {"address1": "3003 Scott Blvd", "address2": null, "address3": "", "city": "Santa Clara", "zip_code": "95054", "country": "US", "state": "CA", "display_address": ["3003 Scott Blvd", "Santa Clara, CA 95054"]}, "phone": "+14087034231", "display_phone": "(408) 703-4231", "distance": 1935.7931319823358}, {"id": "MdqITBnbFT3y-DMG0YsSHQ", "alias": "rockos-ice-cream-tacos-santa-clara", "name": "Rocko's Ice Cream Tacos", "image_url": "https://s3-media1.fl.yelpcdn.com/bphoto/FUn1n4eFNM5mMWzr_dAfSg/o.jpg", "is_closed": false, "url": "https://www.yelp.com/biz/rockos-ice-cream-tacos-santa-clara?adjust_creative=L3zlaznQ8cNdnPEv2WtYaA&utm_campaign=yelp_api_v3&utm_medium=api_v3_business_search&utm_source=L3zlaznQ8cNdnPEv2WtYaA", "review_count": 89, "categories": [{"alias": "icecream", "title": "Ice Cream & Frozen Yogurt"}, {"alias": "coffee", "title": "Coffee & Tea"}, {"alias": "breakfast_brunch", "title": "Breakfast & Brunch"}], "rating": 4.5, "coordinates": {"latitude": 37.3456191038032, "longitude": -121.937541746348}, "transactions": [], "price": "$", "location": {"address1": "2905 Park Ave", "address2": "", "address3": null, "city": "Santa Clara", "zip_code": "95050", "country": "US", "state": "CA", "display_address": ["2905 Park Ave", "Santa Clara, CA 95050"]}, "phone": "+14083201225", "display_phone": "(408) 320-1225", "distance": 3049.1068507826494}, {"id": "gkG6iIt6CuQJn12WNL9vqQ", "alias": "peets-coffee-santa-clara-2", "name": "Peet's Coffee", "image_url": "https://s3-media3.fl.yelpcdn.com/bphoto/rpi5JiRaMcQ0_h6V2g-hoQ/o.jpg", "is_closed": false, "url": "https://www.yelp.com/biz/peets-coffee-santa-clara-2?adjust_creative=L3zlaznQ8cNdnPEv2WtYaA&utm_campaign=yelp_api_v3&utm_medium=api_v3_business_search&utm_source=L3zlaznQ8cNdnPEv2WtYaA", "review_count": 80, "categories": [{"alias": "coffee", "title": "Coffee & Tea"}], "rating": 4.0, "coordinates": {"latitude": 37.35211, "longitude": -121.960547}, "transactions": [], "price": "$", "location": {"address1": "2002 El Camino Real", "address2": "Ste 20", "address3": "", "city": "Santa Clara", "zip_code": "95050", "country": "US", "state": "CA", "display_address": ["2002 El Camino Real", "Ste 20", "Santa Clara, CA 95050"]}, "phone": "+14088317517", "display_phone": "(408) 831-7517", "distance": 1077.7070470385531}, {"id": "-2uqO831mNvqTVrc7rzjLA", "alias": "cocohodo-sunnyvale-2", "name": "Cocohodo", "image_url": "https://s3-media3.fl.yelpcdn.com/bphoto/XzOHR-Mq9cTof4y3m-oZLA/o.jpg", "is_closed": false, "url": "https://www.yelp.com/biz/cocohodo-sunnyvale-2?adjust_creative=L3zlaznQ8cNdnPEv2WtYaA&utm_campaign=yelp_api_v3&utm_medium=api_v3_business_search&utm_source=L3zlaznQ8cNdnPEv2WtYaA", "review_count": 440, "categories": [{"alias": "desserts", "title": "Desserts"}, {"alias": "coffee", "title": "Coffee & Tea"}], "rating": 4.0, "coordinates": {"latitude": 37.3517264451999, "longitude": -122.002505609904}, "transactions": [], "price": "$", "location": {"address1": "1082 E El Camino Real", "address2": "Ste 6", "address3": "", "city": "Sunnyvale", "zip_code": "94087", "country": "US", "state": "CA", "display_address": ["1082 E El Camino Real", "Ste 6", "Sunnyvale, CA 94087"]}, "phone": "+14082478877", "display_phone": "(408) 247-8877", "distance": 3336.92631483609}, {"id": "MWPXp3Hdf34EqKCPgweHMw", "alias": "barefoot-coffee-campbell-campbell-2", "name": "Barefoot Coffee Campbell", "image_url": "https://s3-media4.fl.yelpcdn.com/bphoto/uJICV-X094P9beTqZ1MZUw/o.jpg", "is_closed": false, "url": "https://www.yelp.com/biz/barefoot-coffee-campbell-campbell-2?adjust_creative=L3zlaznQ8cNdnPEv2WtYaA&utm_campaign=yelp_api_v3&utm_medium=api_v3_business_search&utm_source=L3zlaznQ8cNdnPEv2WtYaA", "review_count": 480, "categories": [{"alias": "coffee", "title": "Coffee & Tea"}], "rating": 4.0, "coordinates": {"latitude": 37.2908639, "longitude": -121.9320961}, "transactions": [], "price": "$$", "location": {"address1": "1819 S Bascom Ave", "address2": null, "address3": "", "city": "Campbell", "zip_code": "95008", "country": "US", "state": "CA", "display_address": ["1819 S Bascom Ave", "Campbell, CA 95008"]}, "phone": "+14083405026", "display_phone": "(408) 340-5026", "distance": 8327.222533890439}, {"id": "5mfT9r1jkYBMxYZ3QeNSZg", "alias": "starbucks-santa-clara-18", "name": "Starbucks", "image_url": "https://s3-media2.fl.yelpcdn.com/bphoto/OvSjP4DJ1dzo2FmawV1kZg/o.jpg", "is_closed": false, "url": "https://www.yelp.com/biz/starbucks-santa-clara-18?adjust_creative=L3zlaznQ8cNdnPEv2WtYaA&utm_campaign=yelp_api_v3&utm_medium=api_v3_business_search&utm_source=L3zlaznQ8cNdnPEv2WtYaA", "review_count": 294, "categories": [{"alias": "coffee", "title": "Coffee & Tea"}], "rating": 3.0, "coordinates": {"latitude": 37.3529753, "longitude": -121.997426}, "transactions": [], "price": "$", "location": {"address1": "3605 El Camino Real", "address2": "", "address3": "", "city": "Santa Clara", "zip_code": "95051", "country": "US", "state": "CA", "display_address": ["3605 El Camino Real", "Santa Clara, CA 95051"]}, "phone": "+14082965078", "display_phone": "(408) 296-5078", "distance": 2866.9507454877526}, {"id": "S7QDruyeuy-6win4GaWMag", "alias": "the-coffee-bean-and-tea-leaf-santa-clara", "name": "The Coffee Bean & Tea Leaf", "image_url": "https://s3-media4.fl.yelpcdn.com/bphoto/cR726pWVe4Pj14n4PPY20g/o.jpg", "is_closed": false, "url": "https://www.yelp.com/biz/the-coffee-bean-and-tea-leaf-santa-clara?adjust_creative=L3zlaznQ8cNdnPEv2WtYaA&utm_campaign=yelp_api_v3&utm_medium=api_v3_business_search&utm_source=L3zlaznQ8cNdnPEv2WtYaA", "review_count": 109, "categories": [{"alias": "coffee", "title": "Coffee & Tea"}], "rating": 3.5, "coordinates": {"latitude": 37.325859, "longitude": -121.945602}, "transactions": [], "price": "$", "location": {"address1": "2855 Stevens Creek Blvd", "address2": "Ste 9225", "address3": "", "city": "Santa Clara", "zip_code": "95050", "country": "US", "state": "CA", "display_address": ["2855 Stevens Creek Blvd", "Ste 9225", "Santa Clara, CA 95050"]}, "phone": "+14089851850", "display_phone": "(408) 985-1850", "distance": 4279.256815729168}, {"id": "BeB2vLps1vdX8zWdewuTPA", "alias": "b2-coffee-san-jose", "name": "B2 Coffee", "image_url": "https://s3-media1.fl.yelpcdn.com/bphoto/1wF5AOWqImMenMb50GRXGg/o.jpg", "is_closed": false, "url": "https://www.yelp.com/biz/b2-coffee-san-jose?adjust_creative=L3zlaznQ8cNdnPEv2WtYaA&utm_campaign=yelp_api_v3&utm_medium=api_v3_business_search&utm_source=L3zlaznQ8cNdnPEv2WtYaA", "review_count": 630, "categories": [{"alias": "coffee", "title": "Coffee & Tea"}], "rating": 4.5, "coordinates": {"latitude": 37.33651, "longitude": -121.89432}, "transactions": [], "price": "$", "location": {"address1": "87 N San Pedro St", "address2": "", "address3": "", "city": "San Jose", "zip_code": "95110", "country": "US", "state": "CA", "display_address": ["87 N San Pedro St", "San Jose, CA 95110"]}, "phone": "", "display_phone": "", "distance": 6909.810300576335}, {"id": "Bd07hVwNEGYRV3y9X3MKGQ", "alias": "philz-coffee-sunnyvale-3", "name": "Philz Coffee", "image_url": "https://s3-media2.fl.yelpcdn.com/bphoto/qEs44c0XLs-N-wysdXPjvQ/o.jpg", "is_closed": false, "url": "https://www.yelp.com/biz/philz-coffee-sunnyvale-3?adjust_creative=L3zlaznQ8cNdnPEv2WtYaA&utm_campaign=yelp_api_v3&utm_medium=api_v3_business_search&utm_source=L3zlaznQ8cNdnPEv2WtYaA", "review_count": 532, "categories": [{"alias": "coffee", "title": "Coffee & Tea"}], "rating": 4.5, "coordinates": {"latitude": 37.377340980558, "longitude": -122.031308859587}, "transactions": [], "price": "$", "location": {"address1": "125 S Frances St", "address2": "", "address3": "", "city": "Sunnyvale", "zip_code": "94086", "country": "US", "state": "CA", "display_address": ["125 S Frances St", "Sunnyvale, CA 94086"]}, "phone": "+14086362907", "display_phone": "(408) 636-2907", "distance": 6027.506930667806}, {"id": "0sQGdM6oeOAI1jjtbjxYEA", "alias": "the-coffee-house-san-jose", "name": "The Coffee House", "image_url": "https://s3-media3.fl.yelpcdn.com/bphoto/GmnV8ltfLulVk-YNYLE0kA/o.jpg", "is_closed": false, "url": "https://www.yelp.com/biz/the-coffee-house-san-jose?adjust_creative=L3zlaznQ8cNdnPEv2WtYaA&utm_campaign=yelp_api_v3&utm_medium=api_v3_business_search&utm_source=L3zlaznQ8cNdnPEv2WtYaA", "review_count": 9, "categories": [{"alias": "pizza", "title": "Pizza"}, {"alias": "coffee", "title": "Coffee & Tea"}], "rating": 5.0, "coordinates": {"latitude": 37.34062, "longitude": -121.91748}, "transactions": ["delivery", "pickup"], "location": {"address1": "894 Emory St", "address2": null, "address3": "", "city": "San Jose", "zip_code": "95126", "country": "US", "state": "CA", "display_address": ["894 Emory St", "San Jose, CA 95126"]}, "phone": "+15105197774", "display_phone": "(510) 519-7774", "distance": 4863.184787597765}, {"id": "GaTRT7YljJBT0kPg8wmAqA", "alias": "paris-baguette-santa-clara-2", "name": "Paris Baguette", "image_url": "https://s3-media3.fl.yelpcdn.com/bphoto/scBdpAEfx5Ba43hQiPAfSQ/o.jpg", "is_closed": false, "url": "https://www.yelp.com/biz/paris-baguette-santa-clara-2?adjust_creative=L3zlaznQ8cNdnPEv2WtYaA&utm_campaign=yelp_api_v3&utm_medium=api_v3_business_search&utm_source=L3zlaznQ8cNdnPEv2WtYaA", "review_count": 1296, "categories": [{"alias": "bakeries", "title": "Bakeries"}, {"alias": "coffee", "title": "Coffee & Tea"}], "rating": 4.0, "coordinates": {"latitude": 37.35365, "longitude": -121.994247}, "transactions": [], "price": "$$", "location": {"address1": "3561 El Camino Real", "address2": "Ste 75", "address3": "", "city": "Santa Clara", "zip_code": "95051", "country": "US", "state": "CA", "display_address": ["3561 El Camino Real", "Ste 75", "Santa Clara, CA 95051"]}, "phone": "+14082600404", "display_phone": "(408) 260-0404", "distance": 2576.3662609455487}], "total": 1100, "region": {"center": {"longitude": -121.96643829345703, "latitude": 37.36059569170822}}}