{"businesses": [{"id": "Ypw7qe_L9xAxsMKOb1DO_Q", "alias": "little-by-little-fremont-2", "name": "Little by Little", "image_url": "https://s3-media3.fl.yelpcdn.com/bphoto/K_XDeOt_jFFGi7wYLTEq0g/o.jpg", "is_closed": false, "url": "https://www.yelp.com/biz/little-by-little-fremont-2?adjust_creative=L3zlaznQ8cNdnPEv2WtYaA&utm_campaign=yelp_api_v3&utm_medium=api_v3_business_search&utm_source=L3zlaznQ8cNdnPEv2WtYaA", "review_count": 138, "categories": [{"alias": "cocktailbars", "title": "Cocktail Bars"}, {"alias": "newamerican", "title": "American (New)"}, {"alias": "gastropubs", "title": "Gastropubs"}], "rating": 4.5, "coordinates": {"latitude": 37.493802, "longitude": -121.929835}, "transactions": ["restaurant_reservation"], "price": "$$", "location": {"address1": "46164 Warm Springs Blvd", "address2": "Ste 274", "address3": null, "city": "Fremont", "zip_code": "94539", "country": "US", "state": "CA", "display_address": ["46164 Warm Springs Blvd", "Ste 274", "Fremont, CA 94539"]}, "phone": "+15108976678", "display_phone": "(510) 897-6678", "distance": 6813.106118179459}, {"id": "xqNxkRGOPxCDA0QnEVcVAg", "alias": "ka-yumi-diner-fremont", "name": "KA YuMi Diner", "image_url": "https://s3-media4.fl.yelpcdn.com/bphoto/8fNbCBVH_ApNeYf6xTSvdQ/o.jpg", "is_closed": false, "url": "https://www.yelp.com/biz/ka-yumi-diner-fremont?adjust_creative=L3zlaznQ8cNdnPEv2WtYaA&utm_campaign=yelp_api_v3&utm_medium=api_v3_business_search&utm_source=L3zlaznQ8cNdnPEv2WtYaA", "review_count": 451, "categories": [{"alias": "korean", "title": "Korean"}, {"alias": "asianfusion", "title": "Asian Fusion"}, {"alias": "chicken_wings", "title": "Chicken Wings"}], "rating": 4.0, "coordinates": {"latitude": 37.534781, "longitude": -121.96496}, "transactions": [], "price": "$$", "location": {"address1": "40645 Fremont Blvd", "address2": "Ste 8", "address3": "", "city": "Fremont", "zip_code": "94538", "country": "US", "state": "CA", "display_address": ["40645 Fremont Blvd", "Ste 8", "Fremont, CA 94538"]}, "phone": "+15103531088", "display_phone": "(510) 353-1088", "distance": 1917.225744065256}, {"id": "p5uqf2ujdisFkjkMDAT9Ow", "alias": "sweet-garden-fremont", "name": "Sweet Garden", "image_url": "https://s3-media2.fl.yelpcdn.com/bphoto/n8y8BTb8O40zaLvAEGLgCQ/o.jpg", "is_closed": false, "url": "https://www.yelp.com/biz/sweet-garden-fremont?adjust_creative=L3zlaznQ8cNdnPEv2WtYaA&utm_campaign=yelp_api_v3&utm_medium=api_v3_business_search&utm_source=L3zlaznQ8cNdnPEv2WtYaA", "review_count": 190, "categories": [{"alias": "asianfusion", "title": "Asian Fusion"}, {"alias": "sushi", "title": "Sushi Bars"}, {"alias": "ramen", "title": "Ramen"}], "rating": 4.5, "coordinates": {"latitude": 37.5438591450212, "longitude": -121.981836226954}, "transactions": [], "price": "$", "location": {"address1": "39473 Fremont Blvd", "address2": "", "address3": null, "city": "Fremont", "zip_code": "94538", "country": "US", "state": "CA", "display_address": ["39473 Fremont Blvd", "Fremont, CA 94538"]}, "phone": "+15107719518", "display_phone": "(510) 771-9518", "distance": 1046.0377098819436}, {"id": "s_f_ZsFqWa1VJAAc1pXiqw", "alias": "sala-thai-fremont-2", "name": "Sala Thai", "image_url": "https://s3-media4.fl.yelpcdn.com/bphoto/1IIib1iAPL_lFcz43Qophg/o.jpg", "is_closed": false, "url": "https://www.yelp.com/biz/sala-thai-fremont-2?adjust_creative=L3zlaznQ8cNdnPEv2WtYaA&utm_campaign=yelp_api_v3&utm_medium=api_v3_business_search&utm_source=L3zlaznQ8cNdnPEv2WtYaA", "review_count": 2048, "categories": [{"alias": "thai", "title": "Thai"}], "rating": 4.0, "coordinates": {"latitude": 37.5505241, "longitude": -121.9793462}, "transactions": [], "price": "$$", "location": {"address1": "3241 Walnut Ave", "address2": "", "address3": "", "city": "Fremont", "zip_code": "94538", "country": "US", "state": "CA", "display_address": ["3241 Walnut Ave", "Fremont, CA 94538"]}, "phone": "+15107920770", "display_phone": "(510) 792-0770", "distance": 1814.9885549497135}, {"id": "vIC6NMct6v9a3k2XAgNUJA", "alias": "dish-n-dash-fremont-2", "name": "Dish n' Dash", "image_url": "https://s3-media1.fl.yelpcdn.com/bphoto/IuniNHoJj6FbEK8xUwpPwQ/o.jpg", "is_closed": false, "url": "https://www.yelp.com/biz/dish-n-dash-fremont-2?adjust_creative=L3zlaznQ8cNdnPEv2WtYaA&utm_campaign=yelp_api_v3&utm_medium=api_v3_business_search&utm_source=L3zlaznQ8cNdnPEv2WtYaA", "review_count": 555, "categories": [{"alias": "mideastern", "title": "Middle Eastern"}, {"alias": "halal", "title": "Halal"}, {"alias": "juicebars", "title": "Juice Bars & Smoothies"}], "rating": 4.5, "coordinates": {"latitude": 37.5048876, "longitude": -121.9701053}, "transactions": [], "price": "$$", "location": {"address1": "43514 Christy St", "address2": "", "address3": "", "city": "Fremont", "zip_code": "94538", "country": "US", "state": "CA", "display_address": ["43514 Christy St", "Fremont, CA 94538"]}, "phone": "+15102499220", "display_phone": "(510) 249-9220", "distance": 3647.457194148029}, {"id": "WhjrtEC7Osv5Uv-EXIexxQ", "alias": "gen-korean-bbq-house-fremont-3", "name": "Gen Korean BBQ House", "image_url": "https://s3-media2.fl.yelpcdn.com/bphoto/dFXPj0Yo6tX5ASrLiKL9sg/o.jpg", "is_closed": false, "url": "https://www.yelp.com/biz/gen-korean-bbq-house-fremont-3?adjust_creative=L3zlaznQ8cNdnPEv2WtYaA&utm_campaign=yelp_api_v3&utm_medium=api_v3_business_search&utm_source=L3zlaznQ8cNdnPEv2WtYaA", "review_count": 1385, "categories": [{"alias": "korean", "title": "Korean"}, {"alias": "bbq", "title": "Barbeque"}, {"alias": "asianfusion", "title": "Asian Fusion"}], "rating": 4.0, "coordinates": {"latitude": 37.5033561831859, "longitude": -121.975302103375}, "transactions": [], "price": "$$", "location": {"address1": "43476 Boscell Rd", "address2": "Ste M6-B", "address3": null, "city": "Fremont", "zip_code": "94538", "country": "US", "state": "CA", "display_address": ["43476 Boscell Rd", "Ste M6-B", "Fremont, CA 94538"]}, "phone": "+15105730447", "display_phone": "(510) 573-0447", "distance": 3688.8657503254417}, {"id": "yKpUdq-5cP5KJRq_MOw86Q", "alias": "din-ding-dumpling-house-fremont", "name": "Din Ding Dumpling House", "image_url": "https://s3-media2.fl.yelpcdn.com/bphoto/ejzX_aYIOlJo4pB8iNdXcg/o.jpg", "is_closed": false, "url": "https://www.yelp.com/biz/din-ding-dumpling-house-fremont?adjust_creative=L3zlaznQ8cNdnPEv2WtYaA&utm_campaign=yelp_api_v3&utm_medium=api_v3_business_search&utm_source=L3zlaznQ8cNdnPEv2WtYaA", "review_count": 918, "categories": [{"alias": "shanghainese", "title": "Shanghainese"}], "rating": 3.5, "coordinates": {"latitude": 37.550794, "longitude": -121.980952}, "transactions": [], "price": "$$", "location": {"address1": "3213 Walnut Ave", "address2": "", "address3": "", "city": "Fremont", "zip_code": "94538", "country": "US", "state": "CA", "display_address": ["3213 Walnut Ave", "Fremont, CA 94538"]}, "phone": "+15107978122", "display_phone": "(510) 797-8122", "distance": 1798.1792315438197}, {"id": "sDg03monU9sFPeFQ-pNOVA", "alias": "king-of-thai-noodle-fremont", "name": "King of Thai Noodle", "image_url": "https://s3-media3.fl.yelpcdn.com/bphoto/ikogyobBD3dx57m3Qk6ZBg/o.jpg", "is_closed": false, "url": "https://www.yelp.com/biz/king-of-thai-noodle-fremont?adjust_creative=L3zlaznQ8cNdnPEv2WtYaA&utm_campaign=yelp_api_v3&utm_medium=api_v3_business_search&utm_source=L3zlaznQ8cNdnPEv2WtYaA", "review_count": 133, "categories": [{"alias": "thai", "title": "Thai"}], "rating": 4.0, "coordinates": {"latitude": 37.5526555, "longitude": -122.0544207}, "transactions": ["delivery", "pickup", "restaurant_reservation"], "location": {"address1": "34787 Ardenwood Blvd", "address2": "", "address3": null, "city": "Fremont", "zip_code": "94555", "country": "US", "state": "CA", "display_address": ["34787 Ardenwood Blvd", "Fremont, CA 94555"]}, "phone": "+15105651767", "display_phone": "(510) 565-1767", "distance": 6301.250419357557}, {"id": "oa0k4i-zi_TdE-DQvCJNmg", "alias": "bings-dumpling-fremont", "name": "Bing's Dumpling", "image_url": "https://s3-media3.fl.yelpcdn.com/bphoto/y-ts-X1Ma3AufHb-mPN92A/o.jpg", "is_closed": false, "url": "https://www.yelp.com/biz/bings-dumpling-fremont?adjust_creative=L3zlaznQ8cNdnPEv2WtYaA&utm_campaign=yelp_api_v3&utm_medium=api_v3_business_search&utm_source=L3zlaznQ8cNdnPEv2WtYaA", "review_count": 469, "categories": [{"alias": "dimsum", "title": "Dim Sum"}, {"alias": "noodles", "title": "Noodles"}], "rating": 4.0, "coordinates": {"latitude": 37.5752032935909, "longitude": -122.040460221469}, "transactions": [], "price": "$$", "location": {"address1": "34360 Fremont Blvd", "address2": "", "address3": null, "city": "Fremont", "zip_code": "94555", "country": "US", "state": "CA", "display_address": ["34360 Fremont Blvd", "Fremont, CA 94555"]}, "phone": "+15103205360", "display_phone": "(510) 320-5360", "distance": 6494.113036125059}, {"id": "Qu-U2jL_cEY_8SeQwyQHZA", "alias": "bob-sang-korean-bbq-and-tofu-fremont", "name": "Bob Sang Korean BBQ & Tofu", "image_url": "https://s3-media1.fl.yelpcdn.com/bphoto/JaHzeZA-y4_9oGI5UVzMqA/o.jpg", "is_closed": false, "url": "https://www.yelp.com/biz/bob-sang-korean-bbq-and-tofu-fremont?adjust_creative=L3zlaznQ8cNdnPEv2WtYaA&utm_campaign=yelp_api_v3&utm_medium=api_v3_business_search&utm_source=L3zlaznQ8cNdnPEv2WtYaA", "review_count": 1214, "categories": [{"alias": "korean", "title": "Korean"}, {"alias": "bbq", "title": "Barbeque"}], "rating": 4.0, "coordinates": {"latitude": 37.4910141445603, "longitude": -121.950362822089}, "transactions": [], "price": "$$", "location": {"address1": "4185 Cushing Pkwy", "address2": "", "address3": "", "city": "Fremont", "zip_code": "94538", "country": "US", "state": "CA", "display_address": ["4185 Cushing Pkwy", "Fremont, CA 94538"]}, "phone": "+15102529844", "display_phone": "(510) 252-9844", "distance": 5873.037255745792}, {"id": "w6hgHC7itFtRpvN9Xif5bw", "alias": "kazuma-sushi-fremont", "name": "Kazuma Sushi", "image_url": "https://s3-media2.fl.yelpcdn.com/bphoto/TNc3r5WC5XJBTACkC13vAw/o.jpg", "is_closed": false, "url": "https://www.yelp.com/biz/kazuma-sushi-fremont?adjust_creative=L3zlaznQ8cNdnPEv2WtYaA&utm_campaign=yelp_api_v3&utm_medium=api_v3_business_search&utm_source=L3zlaznQ8cNdnPEv2WtYaA", "review_count": 311, "categories": [{"alias": "japanese", "title": "Japanese"}, {"alias": "sushi", "title": "Sushi Bars"}, {"alias": "asianfusion", "title": "Asian Fusion"}], "rating": 4.5, "coordinates": {"latitude": 37.476565, "longitude": -121.9216279}, "transactions": [], "price": "$$", "location": {"address1": "47986 Warm Springs Blvd", "address2": null, "address3": "", "city": "Fremont", "zip_code": "94539", "country": "US", "state": "CA", "display_address": ["47986 Warm Springs Blvd", "Fremont, CA 94539"]}, "phone": "+15105730914", "display_phone": "(510) 573-0914", "distance": 8648.314467951395}, {"id": "5soRrWfuqGLMy36lJv41qw", "alias": "whos-tea-fremont", "name": "Who's Tea", "image_url": "https://s3-media1.fl.yelpcdn.com/bphoto/XYIsJjFnZNb9DFG7ulu6IQ/o.jpg", "is_closed": false, "url": "https://www.yelp.com/biz/whos-tea-fremont?adjust_creative=L3zlaznQ8cNdnPEv2WtYaA&utm_campaign=yelp_api_v3&utm_medium=api_v3_business_search&utm_source=L3zlaznQ8cNdnPEv2WtYaA", "review_count": 179, "categories": [{"alias": "tea", "title": "Tea Rooms"}], "rating": 4.0, "coordinates": {"latitude": 37.51838, "longitude": -121.98959}, "transactions": ["delivery", "pickup"], "price": "$$", "location": {"address1": "6088 Stevenson Blvd", "address2": null, "address3": "", "city": "Fremont", "zip_code": "94538", "country": "US", "state": "CA", "display_address": ["6088 Stevenson Blvd", "Fremont, CA 94538"]}, "phone": "+15103193638", "display_phone": "(510) 319-3638", "distance": 1904.7800607918166}, {"id": "egtGi_E-tUSj-qXK0KBWng", "alias": "probowls-fremont", "name": "ProBowls", "image_url": "https://s3-media3.fl.yelpcdn.com/bphoto/3fNt_fmFwF5RIio8TZyqTA/o.jpg", "is_closed": false, "url": "https://www.yelp.com/biz/probowls-fremont?adjust_creative=L3zlaznQ8cNdnPEv2WtYaA&utm_campaign=yelp_api_v3&utm_medium=api_v3_business_search&utm_source=L3zlaznQ8cNdnPEv2WtYaA", "review_count": 12, "categories": [{"alias": "healthmarkets", "title": "Health Markets"}], "rating": 5.0, "coordinates": {"latitude": 37.5496736168861, "longitude": -121.987411826849}, "transactions": [], "location": {"address1": "3860 Mowry Ave", "address2": "", "address3": null, "city": "Fremont", "zip_code": "94538", "country": "US", "state": "CA", "display_address": ["3860 Mowry Ave", "Fremont, CA 94538"]}, "phone": "+15107550638", "display_phone": "(510) 755-0638", "distance": 1602.1050271632741}, {"id": "_rToDT4AjUVqVVK-NU8Vfg", "alias": "pie-dreams-fremont-5", "name": "Pie Dreams", "image_url": "https://s3-media4.fl.yelpcdn.com/bphoto/GbUQWf11oo3US3PHE7JQKw/o.jpg", "is_closed": false, "url": "https://www.yelp.com/biz/pie-dreams-fremont-5?adjust_creative=L3zlaznQ8cNdnPEv2WtYaA&utm_campaign=yelp_api_v3&utm_medium=api_v3_business_search&utm_source=L3zlaznQ8cNdnPEv2WtYaA", "review_count": 28, "categories": [{"alias": "desserts", "title": "Desserts"}, {"alias": "gourmet", "title": "Specialty Food"}, {"alias": "bakeries", "title": "Bakeries"}], "rating": 5.0, "coordinates": {"latitude": 37.5571212768555, "longitude": -121.991638183594}, "transactions": [], "price": "$$", "location": {"address1": "", "address2": null, "address3": "", "city": "Fremont", "zip_code": "94536", "country": "US", "state": "CA", "display_address": ["Fremont, CA 94536"]}, "phone": "+15104026324", "display_phone": "(510) 402-6324", "distance": 3560.654230533526}, {"id": "wM24MKgNxcWQ3WiZnE7kFA", "alias": "dog-haus-fremont", "name": "Dog Haus", "image_url": "https://s3-media2.fl.yelpcdn.com/bphoto/kGBXn9LP9UanmobYaURVxg/o.jpg", "is_closed": false, "url": "https://www.yelp.com/biz/dog-haus-fremont?adjust_creative=L3zlaznQ8cNdnPEv2WtYaA&utm_campaign=yelp_api_v3&utm_medium=api_v3_business_search&utm_source=L3zlaznQ8cNdnPEv2WtYaA", "review_count": 468, "categories": [{"alias": "hotdog", "title": "Hot Dogs"}, {"alias": "burgers", "title": "Burgers"}, {"alias": "icecream", "title": "Ice Cream & Frozen Yogurt"}], "rating": 4.0, "coordinates": {"latitude": 37.5022694, "longitude": -121.9747242}, "transactions": [], "price": "$", "location": {"address1": "43456 Boscell Rd", "address2": "", "address3": "", "city": "Fremont", "zip_code": "94538", "country": "US", "state": "CA", "display_address": ["43456 Boscell Rd", "Fremont, CA 94538"]}, "phone": "+15104902800", "display_phone": "(510) 490-2800", "distance": 3686.6595277033016}, {"id": "q4TFULSMVoebvbJfnCYzmQ", "alias": "shinry-lamian-fremont-3", "name": "Shinry Lamian", "image_url": "https://s3-media1.fl.yelpcdn.com/bphoto/4ro_Ynwnh-DAgMqkRJy-yw/o.jpg", "is_closed": false, "url": "https://www.yelp.com/biz/shinry-lamian-fremont-3?adjust_creative=L3zlaznQ8cNdnPEv2WtYaA&utm_campaign=yelp_api_v3&utm_medium=api_v3_business_search&utm_source=L3zlaznQ8cNdnPEv2WtYaA", "review_count": 68, "categories": [{"alias": "chinese", "title": "Chinese"}, {"alias": "noodles", "title": "Noodles"}], "rating": 4.0, "coordinates": {"latitude": 37.56291, "longitude": -122.01009}, "transactions": [], "price": "$$", "location": {"address1": "3625 Thornton Ave", "address2": "", "address3": null, "city": "Fremont", "zip_code": "94536", "country": "US", "state": "CA", "display_address": ["3625 Thornton Ave", "Fremont, CA 94536"]}, "phone": "+15107926660", "display_phone": "(510) 792-6660", "distance": 3718.311837386238}, {"id": "zMzYc_2hscf0p6DFJxOAdw", "alias": "gonutz-fremont-3", "name": "Gonutz", "image_url": "https://s3-media2.fl.yelpcdn.com/bphoto/zEFpj4UgOmCzQo2UUmGorA/o.jpg", "is_closed": false, "url": "https://www.yelp.com/biz/gonutz-fremont-3?adjust_creative=L3zlaznQ8cNdnPEv2WtYaA&utm_campaign=yelp_api_v3&utm_medium=api_v3_business_search&utm_source=L3zlaznQ8cNdnPEv2WtYaA", "review_count": 458, "categories": [{"alias": "donuts", "title": "Donuts"}, {"alias": "coffee", "title": "Coffee & Tea"}], "rating": 4.0, "coordinates": {"latitude": 37.53143, "longitude": -121.95929}, "transactions": ["delivery", "pickup"], "price": "$$", "location": {"address1": "41093 Fremont Blvd", "address2": "Ste 102", "address3": "", "city": "Fremont", "zip_code": "94538", "country": "US", "state": "CA", "display_address": ["41093 Fremont Blvd", "Ste 102", "Fremont, CA 94538"]}, "phone": "+18444466889", "display_phone": "(844) 446-6889", "distance": 2462.8761412310428}, {"id": "wDT-iLfWxr3OuQeQ9EkyPg", "alias": "soo-ja-fusion-bistro-fremont-5", "name": "Soo Ja Fusion Bistro", "image_url": "https://s3-media1.fl.yelpcdn.com/bphoto/Tl0kroOH2y59snHSgxofqA/o.jpg", "is_closed": false, "url": "https://www.yelp.com/biz/soo-ja-fusion-bistro-fremont-5?adjust_creative=L3zlaznQ8cNdnPEv2WtYaA&utm_campaign=yelp_api_v3&utm_medium=api_v3_business_search&utm_source=L3zlaznQ8cNdnPEv2WtYaA", "review_count": 175, "categories": [{"alias": "korean", "title": "Korean"}, {"alias": "asianfusion", "title": "Asian Fusion"}, {"alias": "cocktailbars", "title": "Cocktail Bars"}], "rating": 4.0, "coordinates": {"latitude": 37.51838, "longitude": -121.98959}, "transactions": [], "price": "$$", "location": {"address1": "6038 Stevenson Blvd", "address2": null, "address3": "", "city": "Fremont", "zip_code": "94538", "country": "US", "state": "CA", "display_address": ["6038 Stevenson Blvd", "Fremont, CA 94538"]}, "phone": "+15102266024", "display_phone": "(510) 226-6024", "distance": 1845.0746251062}, {"id": "pirw30DvuMbst4GSCMxUyQ", "alias": "green-champa-garden-fremont", "name": "Green Champa Garden", "image_url": "https://s3-media4.fl.yelpcdn.com/bphoto/RBF-2Uxfti2yt2KyJ97lwg/o.jpg", "is_closed": false, "url": "https://www.yelp.com/biz/green-champa-garden-fremont?adjust_creative=L3zlaznQ8cNdnPEv2WtYaA&utm_campaign=yelp_api_v3&utm_medium=api_v3_business_search&utm_source=L3zlaznQ8cNdnPEv2WtYaA", "review_count": 881, "categories": [{"alias": "thai", "title": "Thai"}, {"alias": "laotian", "title": "Laotian"}], "rating": 4.0, "coordinates": {"latitude": 37.522938, "longitude": -121.9572683}, "transactions": [], "price": "$", "location": {"address1": "42318 Fremont Blvd", "address2": "", "address3": "", "city": "Fremont", "zip_code": "94538", "country": "US", "state": "CA", "display_address": ["42318 Fremont Blvd", "Fremont, CA 94538"]}, "phone": "+15104901500", "display_phone": "(510) 490-1500", "distance": 2935.2488924711674}, {"id": "wbzxHGfqFbltVdjmKnblbw", "alias": "spoon-korean-bistro-fremont-2", "name": "Spoon Korean Bistro", "image_url": "https://s3-media1.fl.yelpcdn.com/bphoto/LC2CUgjWnx7rsk3vjBvFwg/o.jpg", "is_closed": false, "url": "https://www.yelp.com/biz/spoon-korean-bistro-fremont-2?adjust_creative=L3zlaznQ8cNdnPEv2WtYaA&utm_campaign=yelp_api_v3&utm_medium=api_v3_business_search&utm_source=L3zlaznQ8cNdnPEv2WtYaA", "review_count": 104, "categories": [{"alias": "korean", "title": "Korean"}, {"alias": "soup", "title": "Soup"}], "rating": 4.5, "coordinates": {"latitude": 37.49078, "longitude": -121.92938}, "transactions": [], "price": "$$", "location": {"address1": "46695 Mission Blvd", "address2": "", "address3": null, "city": "Fremont", "zip_code": "94539", "country": "US", "state": "CA", "display_address": ["46695 Mission Blvd", "Fremont, CA 94539"]}, "phone": "+15104450500", "display_phone": "(510) 445-0500", "distance": 7010.85795983921}], "total": 4800, "region": {"center": {"longitude": -121.9866943359375, "latitude": 37.53527676006081}}}