{"businesses": [{"id": "BeB2vLps1vdX8zWdewuTPA", "alias": "b2-coffee-san-jose", "name": "B2 Coffee", "image_url": "https://s3-media1.fl.yelpcdn.com/bphoto/1wF5AOWqImMenMb50GRXGg/o.jpg", "is_closed": false, "url": "https://www.yelp.com/biz/b2-coffee-san-jose?adjust_creative=L3zlaznQ8cNdnPEv2WtYaA&utm_campaign=yelp_api_v3&utm_medium=api_v3_business_search&utm_source=L3zlaznQ8cNdnPEv2WtYaA", "review_count": 630, "categories": [{"alias": "coffee", "title": "Coffee & Tea"}], "rating": 4.5, "coordinates": {"latitude": 37.33651, "longitude": -121.89432}, "transactions": [], "price": "$", "location": {"address1": "87 N San Pedro St", "address2": "", "address3": "", "city": "San Jose", "zip_code": "95110", "country": "US", "state": "CA", "display_address": ["87 N San Pedro St", "San Jose, CA 95110"]}, "phone": "", "display_phone": "", "distance": 2375.7859401127166}, {"id": "F-F86-l45uE_gNBFo0jirg", "alias": "moonbeans-coffee-san-jose-3", "name": "MoonBean's Coffee", "image_url": "https://s3-media3.fl.yelpcdn.com/bphoto/4N5idaYjtDBDKrHs-jZ1Sg/o.jpg", "is_closed": false, "url": "https://www.yelp.com/biz/moonbeans-coffee-san-jose-3?adjust_creative=L3zlaznQ8cNdnPEv2WtYaA&utm_campaign=yelp_api_v3&utm_medium=api_v3_business_search&utm_source=L3zlaznQ8cNdnPEv2WtYaA", "review_count": 404, "categories": [{"alias": "coffee", "title": "Coffee & Tea"}], "rating": 4.5, "coordinates": {"latitude": 37.2359931953147, "longitude": -121.802242642328}, "transactions": [], "price": "$", "location": {"address1": "6221 Santa Teresa Blvd", "address2": "", "address3": "", "city": "San Jose", "zip_code": "95119", "country": "US", "state": "CA", "display_address": ["6221 Santa Teresa Blvd", "San Jose, CA 95119"]}, "phone": "+14082818128", "display_phone": "(408) 281-8128", "distance": 11567.588726393367}, {"id": "eXprR2i_W8UKMmsYYbZFQQ", "alias": "philz-coffee-san-jose-2", "name": "Philz Coffee", "image_url": "https://s3-media1.fl.yelpcdn.com/bphoto/lSZiyF5J_vCHlVYR_Yp7UQ/o.jpg", "is_closed": false, "url": "https://www.yelp.com/biz/philz-coffee-san-jose-2?adjust_creative=L3zlaznQ8cNdnPEv2WtYaA&utm_campaign=yelp_api_v3&utm_medium=api_v3_business_search&utm_source=L3zlaznQ8cNdnPEv2WtYaA", "review_count": 2080, "categories": [{"alias": "coffee", "title": "Coffee & Tea"}], "rating": 4.5, "coordinates": {"latitude": 37.333609, "longitude": -121.884901}, "transactions": [], "price": "$", "location": {"address1": "118 Paseo De San Antonio Walk", "address2": "", "address3": "", "city": "San Jose", "zip_code": "95112", "country": "US", "state": "CA", "display_address": ["118 Paseo De San Antonio Walk", "San Jose, CA 95112"]}, "phone": "+14089714212", "display_phone": "(408) 971-4212", "distance": 1904.586629825642}, {"id": "afE2ME37B2Sj_idmfTZ4pQ", "alias": "veros-coffee-bar-san-jose", "name": "Vero's Coffee Bar", "image_url": "https://s3-media2.fl.yelpcdn.com/bphoto/cZLPpRA7rajYcaUufZ00vA/o.jpg", "is_closed": false, "url": "https://www.yelp.com/biz/veros-coffee-bar-san-jose?adjust_creative=L3zlaznQ8cNdnPEv2WtYaA&utm_campaign=yelp_api_v3&utm_medium=api_v3_business_search&utm_source=L3zlaznQ8cNdnPEv2WtYaA", "review_count": 179, "categories": [{"alias": "coffee", "title": "Coffee & Tea"}], "rating": 4.5, "coordinates": {"latitude": 37.3302466659043, "longitude": -121.886280366177}, "transactions": [], "price": "$", "location": {"address1": "387 S 1st St", "address2": "Ste 126", "address3": "", "city": "San Jose", "zip_code": "95113", "country": "US", "state": "CA", "display_address": ["387 S 1st St", "Ste 126", "San Jose, CA 95113"]}, "phone": "+14088884463", "display_phone": "(408) 888-4463", "distance": 1534.3856406624388}, {"id": "X9_bLC143PtN1XT0K7P8iQ", "alias": "voyager-craft-coffee-santa-clara", "name": "Voyager Craft Coffee", "image_url": "https://s3-media2.fl.yelpcdn.com/bphoto/7-Zqcj5mOSKUynbceAdPHA/o.jpg", "is_closed": false, "url": "https://www.yelp.com/biz/voyager-craft-coffee-santa-clara?adjust_creative=L3zlaznQ8cNdnPEv2WtYaA&utm_campaign=yelp_api_v3&utm_medium=api_v3_business_search&utm_source=L3zlaznQ8cNdnPEv2WtYaA", "review_count": 1015, "categories": [{"alias": "coffee", "title": "Coffee & Tea"}, {"alias": "breakfast_brunch", "title": "Breakfast & Brunch"}], "rating": 4.5, "coordinates": {"latitude": 37.3236199, "longitude": -121.9725281}, "transactions": ["pickup"], "price": "$$", "location": {"address1": "3985 Stevens Creek Blvd", "address2": null, "address3": "", "city": "Santa Clara", "zip_code": "95051", "country": "US", "state": "CA", "display_address": ["3985 Stevens Creek Blvd", "Santa Clara, CA 95051"]}, "phone": "+14082393484", "display_phone": "(408) 239-3484", "distance": 7774.385807805602}, {"id": "FkEJ9EO_Fj8RMV-rmlqMTA", "alias": "academic-coffee-san-jose-3", "name": "Academic Coffee", "image_url": "https://s3-media2.fl.yelpcdn.com/bphoto/RG2dM5HjukSBpynbmOvnug/o.jpg", "is_closed": false, "url": "https://www.yelp.com/biz/academic-coffee-san-jose-3?adjust_creative=L3zlaznQ8cNdnPEv2WtYaA&utm_campaign=yelp_api_v3&utm_medium=api_v3_business_search&utm_source=L3zlaznQ8cNdnPEv2WtYaA", "review_count": 228, "categories": [{"alias": "coffee", "title": "Coffee & Tea"}, {"alias": "bakeries", "title": "Bakeries"}], "rating": 4.5, "coordinates": {"latitude": 37.3291649780216, "longitude": -121.88400666966}, "transactions": [], "price": "$", "location": {"address1": "499 S 2nd St", "address2": null, "address3": "", "city": "San Jose", "zip_code": "95113", "country": "US", "state": "CA", "display_address": ["499 S 2nd St", "San Jose, CA 95113"]}, "phone": "", "display_phone": "", "distance": 1413.5180363376862}, {"id": "7IeNBZodKmN_4-2hqYP3dg", "alias": "voltaire-coffee-house-san-jose", "name": "Voltaire Coffee House", "image_url": "https://s3-media3.fl.yelpcdn.com/bphoto/igUgkLYI-_HWcEJh0ibxLQ/o.jpg", "is_closed": false, "url": "https://www.yelp.com/biz/voltaire-coffee-house-san-jose?adjust_creative=L3zlaznQ8cNdnPEv2WtYaA&utm_campaign=yelp_api_v3&utm_medium=api_v3_business_search&utm_source=L3zlaznQ8cNdnPEv2WtYaA", "review_count": 246, "categories": [{"alias": "coffee", "title": "Coffee & Tea"}], "rating": 4.0, "coordinates": {"latitude": 37.32981, "longitude": -121.88677}, "transactions": [], "price": "$$", "location": {"address1": "360 S Market St", "address2": "Ste 80", "address3": "", "city": "San Jose", "zip_code": "95113", "country": "US", "state": "CA", "display_address": ["360 S Market St", "Ste 80", "San Jose, CA 95113"]}, "phone": "+14084579929", "display_phone": "(408) 457-9929", "distance": 1542.0970045788858}, {"id": "Syr_S1MZndZAoIf4aMPpNQ", "alias": "crema-coffee-roasting-san-jose-2", "name": "Crema Coffee Roasting", "image_url": "https://s3-media2.fl.yelpcdn.com/bphoto/wwj2vTibdjk8ib0jowIYBQ/o.jpg", "is_closed": false, "url": "https://www.yelp.com/biz/crema-coffee-roasting-san-jose-2?adjust_creative=L3zlaznQ8cNdnPEv2WtYaA&utm_campaign=yelp_api_v3&utm_medium=api_v3_business_search&utm_source=L3zlaznQ8cNdnPEv2WtYaA", "review_count": 1044, "categories": [{"alias": "coffeeroasteries", "title": "Coffee Roasteries"}], "rating": 4.0, "coordinates": {"latitude": 37.3313599, "longitude": -121.9082}, "transactions": [], "price": "$", "location": {"address1": "950 The Alameda", "address2": "", "address3": "", "city": "San Jose", "zip_code": "95126", "country": "US", "state": "CA", "display_address": ["950 The Alameda", "San Jose, CA 95126"]}, "phone": "+14082955690", "display_phone": "(408) 295-5690", "distance": 2630.25135944593}, {"id": "-FwuOJ_YFdETH3nySdIB_A", "alias": "the-grind-coffee-house-san-jose-2", "name": "The Grind Coffee House", "image_url": "https://s3-media3.fl.yelpcdn.com/bphoto/cQds3DjCZZgTASnHShbaDg/o.jpg", "is_closed": false, "url": "https://www.yelp.com/biz/the-grind-coffee-house-san-jose-2?adjust_creative=L3zlaznQ8cNdnPEv2WtYaA&utm_campaign=yelp_api_v3&utm_medium=api_v3_business_search&utm_source=L3zlaznQ8cNdnPEv2WtYaA", "review_count": 141, "categories": [{"alias": "coffee", "title": "Coffee & Tea"}, {"alias": "bakeries", "title": "Bakeries"}], "rating": 4.5, "coordinates": {"latitude": 37.39664, "longitude": -121.8903}, "transactions": [], "price": "$", "location": {"address1": "2050 Concourse Dr", "address2": "Ste 2", "address3": "", "city": "San Jose", "zip_code": "95131", "country": "US", "state": "CA", "display_address": ["2050 Concourse Dr", "Ste 2", "San Jose, CA 95131"]}, "phone": "+14084289768", "display_phone": "(408) 428-9768", "distance": 8877.389110934293}, {"id": "mLZXUVABNG0TevySSm-gzA", "alias": "chromatic-coffee-san-jose-4", "name": "Chromatic Coffee", "image_url": "https://s3-media1.fl.yelpcdn.com/bphoto/Z5ej8vROdP0K71qK25P7nw/o.jpg", "is_closed": false, "url": "https://www.yelp.com/biz/chromatic-coffee-san-jose-4?adjust_creative=L3zlaznQ8cNdnPEv2WtYaA&utm_campaign=yelp_api_v3&utm_medium=api_v3_business_search&utm_source=L3zlaznQ8cNdnPEv2WtYaA", "review_count": 3, "categories": [{"alias": "coffeeroasteries", "title": "Coffee Roasteries"}], "rating": 4.5, "coordinates": {"latitude": 37.32, "longitude": -121.9082}, "transactions": [], "location": {"address1": "460 Lincoln Ave", "address2": "Ste 10", "address3": "", "city": "San Jose", "zip_code": "95126", "country": "US", "state": "CA", "display_address": ["460 Lincoln Ave", "Ste 10", "San Jose, CA 95126"]}, "phone": "+14082178583", "display_phone": "(408) 217-8583", "distance": 2082.2649703284865}, {"id": "tyr85X7PWdx54LOVzLzjAw", "alias": "hannah-san-jose", "name": "Hannah", "image_url": "https://s3-media2.fl.yelpcdn.com/bphoto/taSSjuoa3I-L3FTm4bmgIw/o.jpg", "is_closed": false, "url": "https://www.yelp.com/biz/hannah-san-jose?adjust_creative=L3zlaznQ8cNdnPEv2WtYaA&utm_campaign=yelp_api_v3&utm_medium=api_v3_business_search&utm_source=L3zlaznQ8cNdnPEv2WtYaA", "review_count": 1022, "categories": [{"alias": "desserts", "title": "Desserts"}, {"alias": "coffee", "title": "Coffee & Tea"}, {"alias": "bakeries", "title": "Bakeries"}], "rating": 4.5, "coordinates": {"latitude": 37.33065, "longitude": -121.9051}, "transactions": [], "price": "$$", "location": {"address1": "754 The Alameda", "address2": "Ste 80", "address3": "", "city": "San Jose", "zip_code": "95126", "country": "US", "state": "CA", "display_address": ["754 The Alameda", "Ste 80", "San Jose, CA 95126"]}, "phone": "+14089711207", "display_phone": "(408) 971-1207", "distance": 2441.5856153002233}, {"id": "0sQGdM6oeOAI1jjtbjxYEA", "alias": "the-coffee-house-san-jose", "name": "The Coffee House", "image_url": "https://s3-media3.fl.yelpcdn.com/bphoto/GmnV8ltfLulVk-YNYLE0kA/o.jpg", "is_closed": false, "url": "https://www.yelp.com/biz/the-coffee-house-san-jose?adjust_creative=L3zlaznQ8cNdnPEv2WtYaA&utm_campaign=yelp_api_v3&utm_medium=api_v3_business_search&utm_source=L3zlaznQ8cNdnPEv2WtYaA", "review_count": 9, "categories": [{"alias": "pizza", "title": "Pizza"}, {"alias": "coffee", "title": "Coffee & Tea"}], "rating": 5.0, "coordinates": {"latitude": 37.34062, "longitude": -121.91748}, "transactions": ["delivery", "pickup"], "location": {"address1": "894 Emory St", "address2": null, "address3": "", "city": "San Jose", "zip_code": "95126", "country": "US", "state": "CA", "display_address": ["894 Emory St", "San Jose, CA 95126"]}, "phone": "+15105197774", "display_phone": "(510) 519-7774", "distance": 3927.491810327112}, {"id": "Wu6cMN0k-PYy-eaikZImoQ", "alias": "roys-station-coffee-and-teas-san-jose", "name": "Roy's Station Coffee & Teas", "image_url": "https://s3-media2.fl.yelpcdn.com/bphoto/a-tSjppXAxfn8y3EDrGylA/o.jpg", "is_closed": false, "url": "https://www.yelp.com/biz/roys-station-coffee-and-teas-san-jose?adjust_creative=L3zlaznQ8cNdnPEv2WtYaA&utm_campaign=yelp_api_v3&utm_medium=api_v3_business_search&utm_source=L3zlaznQ8cNdnPEv2WtYaA", "review_count": 760, "categories": [{"alias": "coffee", "title": "Coffee & Tea"}], "rating": 4.5, "coordinates": {"latitude": 37.3489990234375, "longitude": -121.89469909668}, "transactions": [], "price": "$", "location": {"address1": "197 Jackson St", "address2": "", "address3": "", "city": "San Jose", "zip_code": "95112", "country": "US", "state": "CA", "display_address": ["197 Jackson St", "San Jose, CA 95112"]}, "phone": "+14082862236", "display_phone": "(408) 286-2236", "distance": 3718.0045028764034}, {"id": "0MWvTbCt5ogM0zgW-zgWkQ", "alias": "blvd-coffee-san-jose", "name": "Blvd Coffee", "image_url": "https://s3-media2.fl.yelpcdn.com/bphoto/xOSaetpSejgGe0kBqJ4rqA/o.jpg", "is_closed": false, "url": "https://www.yelp.com/biz/blvd-coffee-san-jose?adjust_creative=L3zlaznQ8cNdnPEv2WtYaA&utm_campaign=yelp_api_v3&utm_medium=api_v3_business_search&utm_source=L3zlaznQ8cNdnPEv2WtYaA", "review_count": 122, "categories": [{"alias": "coffee", "title": "Coffee & Tea"}, {"alias": "creperies", "title": "Creperies"}, {"alias": "sandwiches", "title": "Sandwiches"}], "rating": 4.5, "coordinates": {"latitude": 37.2301875997384, "longitude": -121.884539740758}, "transactions": [], "price": "$", "location": {"address1": "6055 Meridian Ave", "address2": "Ste 20", "address3": "", "city": "San Jose", "zip_code": "95120", "country": "US", "state": "CA", "display_address": ["6055 Meridian Ave", "Ste 20", "San Jose, CA 95120"]}, "phone": "+14082688218", "display_phone": "(408) 268-8218", "distance": 9595.509871492155}, {"id": "S0VBBKmgAweGQoEveqVHIA", "alias": "friends-coffee-and-tea-san-jose", "name": "Friends Coffee & Tea", "image_url": "https://s3-media3.fl.yelpcdn.com/bphoto/UDIeBv6tk6P0CTbzjfs2gw/o.jpg", "is_closed": false, "url": "https://www.yelp.com/biz/friends-coffee-and-tea-san-jose?adjust_creative=L3zlaznQ8cNdnPEv2WtYaA&utm_campaign=yelp_api_v3&utm_medium=api_v3_business_search&utm_source=L3zlaznQ8cNdnPEv2WtYaA", "review_count": 22, "categories": [{"alias": "coffee", "title": "Coffee & Tea"}, {"alias": "specialed", "title": "Special Education"}], "rating": 4.5, "coordinates": {"latitude": 37.30686, "longitude": -121.93233}, "transactions": [], "price": "$", "location": {"address1": "1029 S Bascom Ave", "address2": "", "address3": null, "city": "San Jose", "zip_code": "95128", "country": "US", "state": "CA", "display_address": ["1029 S Bascom Ave", "San Jose, CA 95128"]}, "phone": "+14087258811", "display_phone": "(408) 725-8811", "distance": 4308.843727694229}, {"id": "MWPXp3Hdf34EqKCPgweHMw", "alias": "barefoot-coffee-campbell-campbell-2", "name": "Barefoot Coffee Campbell", "image_url": "https://s3-media4.fl.yelpcdn.com/bphoto/uJICV-X094P9beTqZ1MZUw/o.jpg", "is_closed": false, "url": "https://www.yelp.com/biz/barefoot-coffee-campbell-campbell-2?adjust_creative=L3zlaznQ8cNdnPEv2WtYaA&utm_campaign=yelp_api_v3&utm_medium=api_v3_business_search&utm_source=L3zlaznQ8cNdnPEv2WtYaA", "review_count": 480, "categories": [{"alias": "coffee", "title": "Coffee & Tea"}], "rating": 4.0, "coordinates": {"latitude": 37.2908639, "longitude": -121.9320961}, "transactions": [], "price": "$$", "location": {"address1": "1819 S Bascom Ave", "address2": null, "address3": "", "city": "Campbell", "zip_code": "95008", "country": "US", "state": "CA", "display_address": ["1819 S Bascom Ave", "Campbell, CA 95008"]}, "phone": "+14083405026", "display_phone": "(408) 340-5026", "distance": 5041.208575640618}, {"id": "4izgFvHR3q-2Q42T9n0-ww", "alias": "forager-tasting-room-and-eatery-san-jose", "name": "Forager Tasting Room & Eatery", "image_url": "https://s3-media2.fl.yelpcdn.com/bphoto/mrssuXoBDAbc3Tof9xDHsA/o.jpg", "is_closed": false, "url": "https://www.yelp.com/biz/forager-tasting-room-and-eatery-san-jose?adjust_creative=L3zlaznQ8cNdnPEv2WtYaA&utm_campaign=yelp_api_v3&utm_medium=api_v3_business_search&utm_source=L3zlaznQ8cNdnPEv2WtYaA", "review_count": 142, "categories": [{"alias": "venues", "title": "Venues & Event Spaces"}, {"alias": "beerbar", "title": "Beer Bar"}, {"alias": "coffee", "title": "Coffee & Tea"}], "rating": 4.5, "coordinates": {"latitude": 37.32983, "longitude": -121.88542}, "transactions": [], "price": "$$", "location": {"address1": "420 S 1st St", "address2": "", "address3": null, "city": "San Jose", "zip_code": "95172", "country": "US", "state": "CA", "display_address": ["420 S 1st St", "San Jose, CA 95172"]}, "phone": "+14088312433", "display_phone": "(408) 831-2433", "distance": 1489.5563248319465}, {"id": "Wc8UbzmOFFxBBovw_i2XGg", "alias": "bel-bacio-imported-italian-coffee-san-jose-2", "name": "Bel Bacio Imported Italian Coffee", "image_url": "https://s3-media2.fl.yelpcdn.com/bphoto/xygvoPKQ4yReGYLItY94Fw/o.jpg", "is_closed": false, "url": "https://www.yelp.com/biz/bel-bacio-imported-italian-coffee-san-jose-2?adjust_creative=L3zlaznQ8cNdnPEv2WtYaA&utm_campaign=yelp_api_v3&utm_medium=api_v3_business_search&utm_source=L3zlaznQ8cNdnPEv2WtYaA", "review_count": 198, "categories": [{"alias": "coffee", "title": "Coffee & Tea"}], "rating": 4.5, "coordinates": {"latitude": 37.3358147415201, "longitude": -121.898512501783}, "transactions": [], "price": "$", "location": {"address1": "350 W Julian St", "address2": "Ste 4", "address3": "", "city": "San Jose", "zip_code": "95110", "country": "US", "state": "CA", "display_address": ["350 W Julian St", "Ste 4", "San Jose, CA 95110"]}, "phone": "+14086457776", "display_phone": "(408) 645-7776", "distance": 2456.469137551235}, {"id": "glXPy-G3930VYk1AkCyZvg", "alias": "big-mug-coffee-roaster-santa-clara", "name": "Big Mug Coffee Roaster", "image_url": "https://s3-media3.fl.yelpcdn.com/bphoto/PhJcx-GntiW4_4Pads5TkQ/o.jpg", "is_closed": false, "url": "https://www.yelp.com/biz/big-mug-coffee-roaster-santa-clara?adjust_creative=L3zlaznQ8cNdnPEv2WtYaA&utm_campaign=yelp_api_v3&utm_medium=api_v3_business_search&utm_source=L3zlaznQ8cNdnPEv2WtYaA", "review_count": 1048, "categories": [{"alias": "coffee", "title": "Coffee & Tea"}, {"alias": "coffeeroasteries", "title": "Coffee Roasteries"}, {"alias": "cafes", "title": "Cafes"}], "rating": 4.0, "coordinates": {"latitude": 37.35177, "longitude": -121.98119}, "transactions": [], "price": "$", "location": {"address1": "3014 El Camino Real", "address2": null, "address3": "", "city": "Santa Clara", "zip_code": "95051", "country": "US", "state": "CA", "display_address": ["3014 El Camino Real", "Santa Clara, CA 95051"]}, "phone": "+14088167932", "display_phone": "(408) 816-7932", "distance": 9344.221075382766}, {"id": "2dxj4dNovzyGHWhD88Gz3A", "alias": "the-proper-cup-san-jose", "name": "The Proper Cup", "image_url": "https://s3-media3.fl.yelpcdn.com/bphoto/YHzDsWisrcD4RdbHR1FrXg/o.jpg", "is_closed": false, "url": "https://www.yelp.com/biz/the-proper-cup-san-jose?adjust_creative=L3zlaznQ8cNdnPEv2WtYaA&utm_campaign=yelp_api_v3&utm_medium=api_v3_business_search&utm_source=L3zlaznQ8cNdnPEv2WtYaA", "review_count": 92, "categories": [{"alias": "coffee", "title": "Coffee & Tea"}], "rating": 4.0, "coordinates": {"latitude": 37.33488, "longitude": -121.89213}, "transactions": [], "price": "$", "location": {"address1": "1 S Market St", "address2": "Ste 10", "address3": "", "city": "San Jose", "zip_code": "95113", "country": "US", "state": "CA", "display_address": ["1 S Market St", "Ste 10", "San Jose, CA 95113"]}, "phone": "+14086455875", "display_phone": "(408) 645-5875", "distance": 2156.8246177219708}], "total": 2900, "region": {"center": {"longitude": -121.88507080078125, "latitude": 37.31648115417059}}}